var et500_src ={
"type": "FeatureCollection",
"crs": { "type": "name", "properties": { "name": "urn:ogc:def:crs:OGC:1.3:CRS84" } },
                                                                                
"features": [
{ "type": "Feature", "properties": { "id": 5026, "Nombre": "LAVALLE" }, "geometry": { "type": "Point", "coordinates": [ -65.104461946881045, -28.157730439894134 ] } },
{ "type": "Feature", "properties": { "id": 435, "Nombre": "RECREO" }, "geometry": { "type": "Point", "coordinates": [ -65.057446923068071, -29.260396390064372 ] } },
{ "type": "Feature", "properties": { "id": 169, "Nombre": "EL BRACHO" }, "geometry": { "type": "Point", "coordinates": [ -65.165523545745401, -26.9949090058698 ] } },
{ "type": "Feature", "properties": { "id": 3513, "Nombre": "COBOS" }, "geometry": { "type": "Point", "coordinates": [ -65.050172560908592, -24.745257826031587 ] } },
{ "type": "Feature", "properties": { "id": 483, "Nombre": "SAN JUANCITO" }, "geometry": { "type": "Point", "coordinates": [ -64.997537302081966, -24.376716506058045 ] } },
{ "type": "Feature", "properties": { "id": 4815, "Nombre": "LA RIOJA SUR" }, "geometry": { "type": "Point", "coordinates": [ -66.512936117007541, -29.397477188825285 ] } },
{ "type": "Feature", "properties": { "id": 4824, "Nombre": "MONTE QUEMADO" }, "geometry": { "type": "Point", "coordinates": [ -62.816578063312662, -25.846653913421328 ] } },
{ "type": "Feature", "properties": { "id": 4948, "Nombre": "CHACO" }, "geometry": { "type": "Point", "coordinates": [ -60.439342291883158, -26.865431448898992 ] } },
{ "type": "Feature", "properties": { "id": 439, "Nombre": "RESISTENCIA" }, "geometry": { "type": "Point", "coordinates": [ -59.108568069421153, -27.299726904459494 ] } },
{ "type": "Feature", "properties": { "id": 4893, "Nombre": "GRAN FORMOSA" }, "geometry": { "type": "Point", "coordinates": [ -58.248457573164217, -26.096309408078106 ] } },
{ "type": "Feature", "properties": { "id": 359, "Nombre": "PASO LA PATRIA" }, "geometry": { "type": "Point", "coordinates": [ -58.687925029281843, -27.383612272888065 ] } },
{ "type": "Feature", "properties": { "id": 444, "Nombre": "RINCÓN STA. MARÍA" }, "geometry": { "type": "Point", "coordinates": [ -56.697682987862628, -27.48871811242471 ] } },
{ "type": "Feature", "properties": { "id": 571, "Nombre": "YACYRETÁ" }, "geometry": { "type": "Point", "coordinates": [ -56.739278014651646, -27.48275734010247 ] } },
{ "type": "Feature", "properties": { "id": 476, "Nombre": "SAN ISIDRO" }, "geometry": { "type": "Point", "coordinates": [ -55.918189519488266, -27.442868637758504 ] } },
{ "type": "Feature", "properties": { "id": 1853, "Nombre": "GARABÍ" }, "geometry": { "type": "Point", "coordinates": [ -55.671805644459944, -28.254524696876882 ] } },
{ "type": "Feature", "properties": { "id": 4831, "Nombre": "MERCEDES" }, "geometry": { "type": "Point", "coordinates": [ -57.701702944592007, -29.355880880789126 ] } },
{ "type": "Feature", "properties": { "id": 455, "Nombre": "ROMANG" }, "geometry": { "type": "Point", "coordinates": [ -59.763139807104167, -29.459819443541299 ] } },
{ "type": "Feature", "properties": { "id": 509, "Nombre": "SANTO TOMÉ" }, "geometry": { "type": "Point", "coordinates": [ -60.862415041526617, -31.658565078060622 ] } },
{ "type": "Feature", "properties": { "id": 4833, "Nombre": "RÍO CORONDA" }, "geometry": { "type": "Point", "coordinates": [ -60.793642116595912, -32.578145257872862 ] } },
{ "type": "Feature", "properties": { "id": 458, "Nombre": "ROSARIO OESTE" }, "geometry": { "type": "Point", "coordinates": [ -60.779984897091936, -32.968441665086175 ] } },
{ "type": "Feature", "properties": { "id": 311, "Nombre": "MALVINAS" }, "geometry": { "type": "Point", "coordinates": [ -63.912951977957356, -31.339918523344846 ] } },
{ "type": "Feature", "properties": { "id": 18, "Nombre": "ALMAFUERTE" }, "geometry": { "type": "Point", "coordinates": [ -64.317293633803331, -32.206632563048252 ] } },
{ "type": "Feature", "properties": { "id": 178, "Nombre": "EMBALSE" }, "geometry": { "type": "Point", "coordinates": [ -64.442601984939955, -32.23373110604593 ] } },
{ "type": "Feature", "properties": { "id": 447, "Nombre": "RÍO GRANDE" }, "geometry": { "type": "Point", "coordinates": [ -64.636454415647236, -32.221570353815572 ] } },
{ "type": "Feature", "properties": { "id": 29, "Nombre": "ARROYO CABRAL" }, "geometry": { "type": "Point", "coordinates": [ -63.423248501662606, -32.496803279107866 ] } },
{ "type": "Feature", "properties": { "id": 303, "Nombre": "LUJÁN" }, "geometry": { "type": "Point", "coordinates": [ -66.065164479982059, -32.368943270848419 ] } },
{ "type": "Feature", "properties": { "id": 219, "Nombre": "GRAN MENDOZA" }, "geometry": { "type": "Point", "coordinates": [ -68.581952702510577, -33.097870138058134 ] } },
{ "type": "Feature", "properties": { "id": 4985, "Nombre": "RÍO DIAMANTE" }, "geometry": { "type": "Point", "coordinates": [ -68.593720590899494, -34.549951906407372 ] } },
{ "type": "Feature", "properties": { "id": 471, "Nombre": "SALTO GRANDE (ARG)" }, "geometry": { "type": "Point", "coordinates": [ -57.96352083074401, -31.279664308550529 ] } },
{ "type": "Feature", "properties": { "id": 472, "Nombre": "SALTO GRANDE (URG)" }, "geometry": { "type": "Point", "coordinates": [ -57.932377954686125, -31.288811260010085 ] } },
{ "type": "Feature", "properties": { "id": 132, "Nombre": "C. ELÍA" }, "geometry": { "type": "Point", "coordinates": [ -58.293988353609052, -32.601286930736741 ] } },
{ "type": "Feature", "properties": { "id": 478, "Nombre": "SAN JAVIER" }, "geometry": { "type": "Point", "coordinates": [ -58.047647223333968, -32.566676563776646 ] } },
{ "type": "Feature", "properties": { "id": 430, "Nombre": "RAMALLO" }, "geometry": { "type": "Point", "coordinates": [ -60.180114683928011, -33.410509715337874 ] } },
{ "type": "Feature", "properties": { "id": 65, "Nombre": "AES PARANÁ" }, "geometry": { "type": "Point", "coordinates": [ -60.169664508227555, -33.356195997430348 ] } },
{ "type": "Feature", "properties": { "id": 32, "Nombre": "ATUCHA II" }, "geometry": { "type": "Point", "coordinates": [ -59.204788887363954, -33.971061289074555 ] } },
{ "type": "Feature", "properties": { "id": 349, "Nombre": "NUEVA CAMPANA" }, "geometry": { "type": "Point", "coordinates": [ -58.998793475089457, -34.172919501499841 ] } },
{ "type": "Feature", "properties": { "id": 4992, "Nombre": "BELGRANO" }, "geometry": { "type": "Point", "coordinates": [ -59.00339944413323, -34.186075307761982 ] } },
{ "type": "Feature", "properties": { "id": 218, "Nombre": "GRAL. RODRIGUEZ" }, "geometry": { "type": "Point", "coordinates": [ -58.931893370511077, -34.529988451485153 ] } },
{ "type": "Feature", "properties": { "id": 186, "Nombre": "EZEIZA" }, "geometry": { "type": "Point", "coordinates": [ -58.724642215100033, -34.911846541211567 ] } },
{ "type": "Feature", "properties": { "id": 6, "Nombre": "ABASTO" }, "geometry": { "type": "Point", "coordinates": [ -58.16492732260042, -34.968226324701249 ] } },
{ "type": "Feature", "properties": { "id": 230, "Nombre": "HENDERSON" }, "geometry": { "type": "Point", "coordinates": [ -61.67073506332239, -36.345953274558333 ] } },
{ "type": "Feature", "properties": { "id": 354, "Nombre": "OLAVARRÍA" }, "geometry": { "type": "Point", "coordinates": [ -60.343998590241505, -36.839220981167728 ] } },
{ "type": "Feature", "properties": { "id": 39, "Nombre": "BAHÍA BLANCA" }, "geometry": { "type": "Point", "coordinates": [ -62.053766236625862, -38.657343582484586 ] } },
{ "type": "Feature", "properties": { "id": 397, "Nombre": "PIEDRA BUENA" }, "geometry": { "type": "Point", "coordinates": [ -62.25175721757892, -38.786596793647782 ] } },
{ "type": "Feature", "properties": { "id": 1873, "Nombre": "MACACHÍN" }, "geometry": { "type": "Point", "coordinates": [ -63.564656843502291, -37.151382934350735 ] } },
{ "type": "Feature", "properties": { "id": 420, "Nombre": "PUELCHES" }, "geometry": { "type": "Point", "coordinates": [ -65.822959635370651, -38.150142797782443 ] } },
{ "type": "Feature", "properties": { "id": 119, "Nombre": "CHOELE CHOEL" }, "geometry": { "type": "Point", "coordinates": [ -65.691999487864663, -39.56834946716841 ] } },
{ "type": "Feature", "properties": { "id": 17, "Nombre": "ALICURÁ" }, "geometry": { "type": "Point", "coordinates": [ -70.748659606853025, -40.579658912094246 ] } },
{ "type": "Feature", "properties": { "id": 166, "Nombre": "P. DEL AGUILA" }, "geometry": { "type": "Point", "coordinates": [ -70.044752489274842, -40.16289263026259 ] } },
{ "type": "Feature", "properties": { "id": 105, "Nombre": "P. DEL AGUILA (CH)" }, "geometry": { "type": "Point", "coordinates": [ -69.991493971944308, -40.189261874598849 ] } },
{ "type": "Feature", "properties": { "id": 362, "Nombre": "P. P. LEUFÚ" }, "geometry": { "type": "Point", "coordinates": [ -69.984383930521275, -40.012544396793444 ] } },
{ "type": "Feature", "properties": { "id": 66, "Nombre": "EL CHOCÓN (CH)" }, "geometry": { "type": "Point", "coordinates": [ -68.756690669843834, -39.265852182990685 ] } },
{ "type": "Feature", "properties": { "id": 171, "Nombre": "EL CHOCÓN" }, "geometry": { "type": "Point", "coordinates": [ -68.748146024094268, -39.257778762356786 ] } },
{ "type": "Feature", "properties": { "id": 118, "Nombre": "EL CHOCÓN OESTE" }, "geometry": { "type": "Point", "coordinates": [ -68.779399257525725, -39.237379768948784 ] } },
{ "type": "Feature", "properties": { "id": 11, "Nombre": "AGUA DE CAJÓN" }, "geometry": { "type": "Point", "coordinates": [ -68.355984070524386, -38.93895971679067 ] } },
{ "type": "Feature", "properties": { "id": 149, "Nombre": "CERRITO DE LA COSTA" }, "geometry": { "type": "Point", "coordinates": [ -68.257366844130345, -38.719714874809092 ] } },
{ "type": "Feature", "properties": { "id": 383, "Nombre": "P. BANDERITA" }, "geometry": { "type": "Point", "coordinates": [ -68.472922672227867, -38.55994133818389 ] } },
{ "type": "Feature", "properties": { "id": 297, "Nombre": "LOMA LA LATA" }, "geometry": { "type": "Point", "coordinates": [ -68.604384133437136, -38.512646336975976 ] } },
{ "type": "Feature", "properties": { "id": 634, "Nombre": "PUERTO MADRYN" }, "geometry": { "type": "Point", "coordinates": [ -65.105115802564399, -42.704455621212936 ] } },
{ "type": "Feature", "properties": { "id": 4822, "Nombre": "SANTA CRUZ NORTE" }, "geometry": { "type": "Point", "coordinates": [ -67.979200139704119, -46.774281502723404 ] } },
{ "type": "Feature", "properties": { "id": 4874, "Nombre": "RÍO SANTA CRUZ" }, "geometry": { "type": "Point", "coordinates": [ -68.973397016873946, -49.986180910169672 ] } },
{ "type": "Feature", "properties": { "id": 183, "Nombre": "LA ESPERANZA" }, "geometry": { "type": "Point", "coordinates": [ -70.714270464320421, -51.042721837578647 ] } },
{ "type": "Feature", "properties": { "id": 5027, "Nombre": "SANTIAGO" }, "geometry": { "type": "Point", "coordinates": [ -64.346174574224278, -27.838390653408439 ] } },
{ "type": "Feature", "properties": { "id": 5227, "Nombre": "G. BROWN" }, "geometry": { "type": "Point", "coordinates": [ -62.415758265124275, -38.684571014405385 ] } },
{ "type": "Feature", "properties": { "id": 4919, "Nombre": "Gran Parana" }, "geometry": { "type": "Point", "coordinates": [ -60.425569442729412, -31.714239014656204 ] } }
]
}
;